[{"shortcode": "CBvJshABADv", "location": "Bungbulang, Jawa Barat, Indonesia", "id": "325200496", "latitude": -7.45, "longitude": 107.583}, {"shortcode": "CBvJvGQh9_r", "location": "Science Centre Singapore", "id": "1690577", "latitude": 1.3324152623, "longitude": 103.7355957257}, {"shortcode": "CBvJvEfFzSL", "location": "Asia Singapore", "id": "218565722232147", "latitude": 1.45045205, "longitude": 103.80016085}, {"shortcode": "CBvJqmjlTVD", "location": "London, Un\u03b9ted Kingdom", "id": "858035584228705", "latitude": 51.474967445, "longitude": -0.07939436}, {"shortcode": "CBvImeZlizx", "location": "Wingstop Singapore", "id": "358518311211557", "latitude": 1.2635277285, "longitude": 103.8217541211}, {"shortcode": "CBvJpOiF_Yd", "location": "The Fabulous Baker Boy : Juwanda", "id": "227626798", "latitude": 1.2918211544, "longitude": 103.8458820272}, {"shortcode": "CBvJoifMt66", "location": "Amsterdam, Netherlands", "id": "116231", "latitude": 52.3769, "longitude": 4.8982}, {"shortcode": "CBvJn4ABgKZ", "location": "Changi Airport", "id": "440076403083270", "latitude": 1.356754834, "longitude": 103.9892516776}, {"shortcode": "CBvJmfZnJ-L", "location": "Marina Barrage", "id": "214073108", "latitude": 1.2804688719, "longitude": 103.8711514603}, {"shortcode": "CBvJkZiDN22", "location": "The Fullerton Bay Hotel Singapore", "id": "4212027", "latitude": 1.2836682687, "longitude": 103.8533927947}, {"shortcode": "CBvJfF7Jdtr", "location": "Marina Bay Sands", "id": "1163295", "latitude": 1.2838870894, "longitude": 103.8595699429}, {"shortcode": "CBvJcsNg-29", "location": "Barcelona, Spain", "id": "213100244", "latitude": 41.3894, "longitude": 2.1683}, {"shortcode": "CBvJcnbAGDo", "location": "Kuwait City", "id": "24619808", "latitude": 29.3697, "longitude": 47.9783}, {"shortcode": "CBvJcb3FED9", "location": "Toa Payoh, Singapore", "id": "38883067", "latitude": 1.3353, "longitude": 103.8512}, {"shortcode": "CBvJYthpjNu", "location": "Kuwait City", "id": "24619808", "latitude": 29.3697, "longitude": 47.9783}, {"shortcode": "CBvJbuWHLrh", "location": "Kuwait City", "id": "24619808", "latitude": 29.3697, "longitude": 47.9783}, {"shortcode": "CBvJXH8h06t", "location": "Dubai, United Arab Emirates - UAE", "id": "331470770524733", "latitude": 25.122006254, "longitude": 55.356769089}, {"shortcode": "CBvJW1-Bva7", "location": "Tampines Optical Senja", "id": "251845242218489", "latitude": 1.38509, "longitude": 103.76005}, {"shortcode": "CBvJWvCHd44", "location": "Indonesia", "id": "567193077", "latitude": -0.8349, "longitude": 113.4668}, {"shortcode": "CBvJBQQnzEg", "location": "Mr Bean Singapore", "id": "103757314585191", "latitude": 1.43975, "longitude": 103.80072}, {"shortcode": "CBvGRVKj0p3", "location": "Garden by the Bay, Singapore", "id": "2179745965571836", "latitude": -7.3290428686, "longitude": 112.7495893544}, {"shortcode": "CBucEoZDIdd", "location": "Marina Bay Singapore", "id": "36637230", "latitude": 1.2837748887, "longitude": 103.859777474}, {"shortcode": "CBtJxGepKP6", "location": "Gardens by the Bay", "id": "485696", "latitude": 1.2815169765, "longitude": 103.8657546043}]